[
  {
    "address": "4065 Harvester Rd, Burlington, ON L7L 5J1",
    "hours": "10 a.m.–1 a.m. (Sun-Thu), 10 a.m.–2 a.m. (Fri-Sat)",
    "name": "Burlington Bowl",
    "pricing": "Not available",
    "website": "http://www.burlingtonbowl.com/"
  },
  {
    "address": "3055 Dundas St W, Mississauga, ON L5L 3R8",
    "hours": "9 a.m.–11 p.m. (Sun-Thu), 9 a.m.–12 a.m. (Fri-Sat)",
    "name": "Classic Bowl",
    "pricing": "$80+ for four people to bowl one game in an hour",
    "website": "http://www.classicbowl.com"
  },
  {
    "address": "830 Laurentian Dr, Burlington, ON L7N 3V6",
    "hours": "10 a.m.–11 p.m. (Sun-Thu), 10 a.m.–1 a.m. (Fri-Sat)",
    "name": "Splitsville Burlington",
    "pricing": "Not specified",
    "website": "https://splitsville.ca/burlington-bowling/"
  },
  {
    "address": "1515 Rebecca St, Oakville, ON L6L 5G8",
    "hours": "12–6 p.m. (Sun), 12–9 p.m. (Mon-Wed, Fri), 4–9 p.m. (Thu), 10:30 a.m.–9 p.m. (Sat)",
    "name": "Hopedale Bowl",
    "pricing": "Unknown",
    "website": "http://www.hopedalebowl.ca/"
  }
]
